{
    "tourist_spots": [
      {
        "name": "Marina Bay Sands",
        "lat": 1.2837,
        "lng": 103.8607
      },
      {
        "name": "Gardens by the Bay",
        "lat": 1.2816,
        "lng": 103.8636
      },
      {
        "name": "Sentosa Island",
        "lat": 1.2494,
        "lng": 103.8303
      },
      {
        "name": "Universal Studios Singapore",
        "lat": 1.2541,
        "lng": 103.8238
      },
      {
        "name": "Singapore Zoo",
        "lat": 1.4043,
        "lng": 103.7930
      },
      {
        "name": "Merlion Park",
        "lat": 1.2868,
        "lng": 103.8545
      },
      {
        "name": "Clarke Quay",
        "lat": 1.2888,
        "lng": 103.8465
      },
      {
        "name": "Chinatown",
        "lat": 1.2850,
        "lng": 103.8437
      },
      {
        "name": "Little India",
        "lat": 1.3066,
        "lng": 103.8508
      },
      {
        "name": "Orchard Road",
        "lat": 1.3048,
        "lng": 103.8317
      },
      {
        "name": "Singapore Flyer",
        "lat": 1.2893,
        "lng": 103.8631
      },
      {
        "name": "National Museum of Singapore",
        "lat": 1.2966,
        "lng": 103.8486
      },
      {
        "name": "ArtScience Museum",
        "lat": 1.2864,
        "lng": 103.8593
      },
      {
        "name": "Botanic Gardens",
        "lat": 1.3150,
        "lng": 103.8162
      },
      {
        "name": "East Coast Park",
        "lat": 1.3028,
        "lng": 103.9123
      },
      {
        "name": "Raffles Hotel",
        "lat": 1.2948,
        "lng": 103.8545
      },
      {
        "name": "Haji Lane",
        "lat": 1.3009,
        "lng": 103.8587
      },
      {
        "name": "Jurong Bird Park",
        "lat": 1.3187,
        "lng": 103.7064
      },
      {
        "name": "Fort Canning Park",
        "lat": 1.2950,
        "lng": 103.8464
      },
      {
        "name": "Pulau Ubin",
        "lat": 1.4121,
        "lng": 103.9590
      }
    ]
  }